// GGA provides time/positional data
$GPGGA,131459.00,5154.93971,N,00204.22089,W,1,10,1.13,74.0,M,48.0,M,,*7F

// GSA provides details of all of the satellites in view
$GPGSA,A,3,27,08,10,21,16,20,11,26,18,30,,,2.17,1.13,1.85*0D

// GSV messages provide positional data for satellites
$GPGSV,4,1,14,01,12,242,18,07,15,286,18,08,65,293,28,10,53,102,22*7D
$GPGSV,4,2,14,11,36,265,26,13,01,357,,15,06,023,,16,37,177,27*7C
$GPGSV,4,3,14,18,05,062,16,20,37,058,26,21,43,067,31,26,05,165,10*7E
$GPGSV,4,4,14,27,78,106,20,30,13,316,20*74

// GLL provides time/positional data
$GPGLL,5154.93971,N,00204.22089,W,131459.00,A,A*77

// RMC provides time/positional data
$GPRMC,131500.00,A,5154.93977,N,00204.22091,W,0.178,,280620,,,A*6C

// VTG provides ground speed information
$GPVTG,,T,,M,0.178,N,0.329,K,A*25


$GPGGA,131500.00,5154.93977,N,00204.22091,W,1,09,1.13,74.3,M,48.0,M,,*76
$GPGSA,A,3,27,08,10,21,16,20,11,26,30,,,,2.17,1.13,1.85*04
$GPGSV,4,1,14,01,12,242,17,07,15,286,,08,65,293,28,10,53,102,22*7B
$GPGSV,4,2,14,11,36,265,26,13,01,357,,15,06,023,,16,37,177,27*7C
$GPGSV,4,3,14,18,05,062,,20,37,058,27,21,43,067,30,26,05,165,11*78
$GPGSV,4,4,14,27,78,106,21,30,13,316,21*74
$GPGLL,5154.93977,N,00204.22091,W,131500.00,A,A*75
$GPRMC,131501.00,A,5154.93994,N,00204.22101,W,0.436,,280620,,,A*67
$GPVTG,,T,,M,0.436,N,0.807,K,A*2D
$GPGGA,131501.00,5154.93994,N,00204.22101,W,1,09,1.13,74.1,M,48.0,M,,*70
$GPGSA,A,3,27,08,10,21,16,20,11,07,30,,,,2.17,1.13,1.85*07
$GPGSV,4,1,14,01,12,242,17,07,15,286,19,08,65,293,28,10,53,102,21*70
$GPGSV,4,2,14,11,36,265,27,13,01,357,,15,06,023,,16,37,177,27*7D
$GPGSV,4,3,14,18,05,062,,20,37,058,27,21,43,067,30,26,05,165,*78
$GPGSV,4,4,14,27,78,106,21,30,13,316,21*74
$GPGLL,5154.93994,N,00204.22101,W,131501.00,A,A*71
$GPRMC,131502.00,A,5154.94009,N,00204.22103,W,0.549,,280620,,,A*65
$GPVTG,,T,,M,0.549,N,1.018,K,A*23
$GPGGA,131502.00,5154.94009,N,00204.22103,W,1,08,1.13,74.0,M,48.0,M,,*7B
$GPGSA,A,3,27,08,10,21,16,20,11,30,,,,,2.17,1.13,1.85*00
$GPGSV,4,1,14,01,12,242,17,07,15,286,,08,65,293,28,10,53,102,22*7B
$GPGSV,4,2,14,11,36,265,27,13,01,357,,15,06,023,,16,37,177,27*7D
$GPGSV,4,3,14,18,05,062,,20,37,058,26,21,43,067,30,26,05,165,*79
$GPGSV,4,4,14,27,78,106,21,30,13,316,20*75
$GPGLL,5154.94009,N,00204.22103,W,131502.00,A,A*7A
$GPRMC,131503.00,A,5154.94017,N,00204.22102,W,0.468,,280620,,,A*68
$GPVTG,,T,,M,0.468,N,0.867,K,A*20
$GPGGA,131503.00,5154.94017,N,00204.22102,W,1,09,1.13,73.9,M,48.0,M,,*7B
$GPGSA,A,3,27,08,10,21,16,20,11,18,30,,,,2.17,1.13,1.85*09
$GPGSV,4,1,14,01,12,242,17,07,15,285,,08,65,293,28,10,53,102,21*7B
$GPGSV,4,2,14,11,36,265,27,13,01,357,,15,06,023,,16,37,177,28*72
$GPGSV,4,3,14,18,05,062,20,20,37,058,26,21,43,067,30,26,05,165,*7B
$GPGSV,4,4,14,27,78,106,21,30,13,316,20*75
$GPGLL,5154.94017,N,00204.22102,W,131503.00,A,A*75
$GPRMC,131504.00,A,5154.94026,N,00204.22102,W,0.456,,280620,,,A*60
$GPVTG,,T,,M,0.456,N,0.844,K,A*2C
$GPGGA,131504.00,5154.94026,N,00204.22102,W,1,09,1.13,73.7,M,48.0,M,,*70
$GPGSA,A,3,27,08,10,21,16,20,11,18,30,,,,2.17,1.13,1.85*09
$GPGSV,4,1,14,01,12,242,17,07,15,285,,08,66,293,28,10,53,102,22*7B
$GPGSV,4,2,14,11,36,265,27,13,01,357,,15,06,023,,16,37,177,27*7D
$GPGSV,4,3,14,18,05,062,17,20,37,058,26,21,43,067,29,26,05,165,*77
$GPGSV,4,4,14,27,78,106,19,30,13,316,18*75
$GPGLL,5154.94026,N,00204.22102,W,131504.00,A,A*70
$GPRMC,131505.00,A,5154.94042,N,00204.22111,W,0.542,,280620,,,A*65
$GPVTG,,T,,M,0.542,N,1.004,K,A*25
$GPGGA,131505.00,5154.94042,N,00204.22111,W,1,08,1.13,73.3,M,48.0,M,,*74
$GPGSA,A,3,27,08,10,21,16,20,11,30,,,,,2.17,1.13,1.85*00
$GPGSV,4,1,14,01,12,242,17,07,15,285,,08,66,293,27,10,53,102,22*74
$GPGSV,4,2,14,11,36,265,27,13,01,357,,15,06,023,,16,37,177,28*72
$GPGSV,4,3,14,18,05,062,,20,37,058,27,21,43,067,29,26,05,165,*70
$GPGSV,4,4,14,27,78,106,16,30,13,316,17*75
$GPGLL,5154.94042,N,00204.22111,W,131505.00,A,A*71
$GPRMC,131506.00,A,5154.94052,N,00204.22110,W,0.405,,280620,,,A*64
$GPVTG,,T,,M,0.405,N,0.751,K,A*21
$GPGGA,131506.00,5154.94052,N,00204.22110,W,1,09,1.13,73.4,M,48.0,M,,*71
$GPGSA,A,3,27,08,10,21,16,20,11,18,30,,,,2.17,1.13,1.85*09
$GPGSV,4,1,14,01,12,242,18,07,15,285,,08,66,293,27,10,54,101,22*7F
$GPGSV,4,2,14,11,36,265,27,13,01,357,,15,06,023,,16,37,177,28*72
$GPGSV,4,3,14,18,05,062,21,20,37,058,26,21,43,067,29,26,05,165,*72
$GPGSV,4,4,14,27,78,106,17,30,13,316,18*7B
$GPGLL,5154.94052,N,00204.22110,W,131506.00,A,A*72
$GPRMC,131507.00,A,5154.94064,N,00204.22109,W,0.338,,280620,,,A*61
$GPVTG,,T,,M,0.338,N,0.626,K,A*29
$GPGGA,131507.00,5154.94064,N,00204.22109,W,1,09,1.13,73.6,M,48.0,M,,*7F
$GPGSA,A,3,27,08,10,21,16,20,11,26,30,,,,2.17,1.13,1.85*04
$GPGSV,4,1,14,01,12,242,17,07,15,285,,08,66,293,27,10,54,101,22*70
$GPGSV,4,2,14,11,36,265,27,13,01,357,,15,06,023,,16,37,177,28*72
$GPGSV,4,3,14,18,05,062,19,20,37,058,25,21,43,067,30,26,05,165,13*70
$GPGSV,4,4,14,27,78,106,17,30,13,316,18*7B
$GPGLL,5154.94064,N,00204.22109,W,131507.00,A,A*7E
$GPRMC,131508.00,A,5154.94069,N,00204.22104,W,0.206,,280620,,,A*62
$GPVTG,,T,,M,0.206,N,0.382,K,A*2E
$GPGGA,131508.00,5154.94069,N,00204.22104,W,1,10,1.13,73.3,M,48.0,M,,*7D
$GPGSA,A,3,27,08,10,21,16,20,11,07,26,30,,,2.17,1.13,1.85*03
$GPGSV,4,1,14,01,12,242,15,07,15,285,20,08,66,293,26,10,54,101,21*72
$GPGSV,4,2,14,11,36,265,27,13,01,357,,15,06,023,,16,37,177,27*7D
$GPGSV,4,3,14,18,05,062,16,20,37,058,25,21,43,067,28,26,05,165,12*77
$GPGSV,4,4,14,27,78,106,16,30,13,316,16*74
$GPGLL,5154.94069,N,00204.22104,W,131508.00,A,A*71
$GPRMC,131509.00,A,5154.94070,N,00204.22098,W,0.062,,280620,,,A*6F
$GPVTG,,T,,M,0.062,N,0.114,K,A*23
$GPGGA,131509.00,5154.94070,N,00204.22098,W,1,10,1.13,73.5,M,48.0,M,,*76
$GPGSA,A,3,27,08,10,21,16,20,11,07,18,30,,,2.17,1.13,1.85*0E
$GPGSV,4,1,14,01,12,242,,07,15,285,17,08,66,293,26,10,54,101,21*72
$GPGSV,4,2,14,11,36,265,26,13,01,356,,15,06,023,,16,37,177,27*7D
$GPGSV,4,3,14,18,05,062,18,20,37,058,25,21,43,067,28,26,05,165,10*7B
$GPGSV,4,4,14,27,78,106,18,30,13,316,15*79
$GPGLL,5154.94070,N,00204.22098,W,131509.00,A,A*7C
$GPRMC,131510.00,A,5154.94076,N,00204.22097,W,0.069,,280620,,,A*65
$GPVTG,,T,,M,0.069,N,0.128,K,A*27
$GPGGA,131510.00,5154.94076,N,00204.22097,W,1,09,1.13,73.5,M,48.0,M,,*7F
$GPGSA,A,3,27,08,10,21,16,20,11,18,30,,,,2.17,1.13,1.85*09
$GPGSV,4,1,14,01,12,242,,07,15,285,16,08,66,293,27,10,54,101,21*72
$GPGSV,4,2,14,11,36,265,27,13,01,356,,15,06,023,,16,37,177,27*7C
$GPGSV,4,3,14,18,05,062,16,20,37,058,25,21,43,067,29,26,05,165,09*7C
$GPGSV,4,4,14,27,78,106,19,30,13,316,16*7B
$GPGLL,5154.94076,N,00204.22097,W,131510.00,A,A*7D
$GPRMC,131511.00,A,5154.94080,N,00204.22095,W,0.060,,280620,,,A*66
$GPVTG,,T,,M,0.060,N,0.112,K,A*27
$GPGGA,131511.00,5154.94080,N,00204.22095,W,1,10,1.13,73.7,M,48.0,M,,*7F
$GPGSA,A,3,27,08,10,21,16,20,11,07,26,30,,,2.17,1.13,1.85*03
$GPGSV,4,1,14,01,12,242,,07,15,285,17,08,66,293,27,10,54,101,21*73
$GPGSV,4,2,14,11,36,265,27,13,01,356,,15,06,023,,16,37,177,27*7C
$GPGSV,4,3,14,18,05,062,13,20,37,058,25,21,43,067,29,26,05,165,10*71
$GPGSV,4,4,14,27,78,106,20,30,13,316,17*70
$GPGLL,5154.94080,N,00204.22095,W,131511.00,A,A*77
$GPRMC,131512.00,A,5154.94084,N,00204.22089,W,0.049,,280620,,,A*67
$GPVTG,,T,,M,0.049,N,0.090,K,A*27
$GPGGA,131512.00,5154.94084,N,00204.22089,W,1,09,1.13,73.9,M,48.0,M,,*73
$GPGSA,A,3,27,08,10,21,16,20,11,26,30,,,,2.17,1.13,1.85*04
$GPGSV,4,1,14,01,12,242,,07,15,285,,08,66,293,27,10,54,101,21*75
$GPGSV,4,2,14,11,36,265,27,13,01,356,,15,06,023,,16,36,177,27*7D
$GPGSV,4,3,14,18,05,062,13,20,37,058,25,21,43,067,29,26,05,165,10*71
$GPGSV,4,4,14,27,78,106,19,30,13,316,17*7A
$GPGLL,5154.94084,N,00204.22089,W,131512.00,A,A*7D
$GPRMC,131513.00,A,5154.94090,N,00204.22087,W,0.049,,280620,,,A*6D
$GPVTG,,T,,M,0.049,N,0.091,K,A*26
$GPGGA,131513.00,5154.94090,N,00204.22087,W,1,10,1.13,74.2,M,48.0,M,,*7D
$GPGSA,A,3,27,08,10,21,16,20,11,26,18,30,,,2.17,1.13,1.85*0D
$GPGSV,4,1,14,01,12,242,,07,15,285,,08,66,293,27,10,54,101,21*75
$GPGSV,4,2,14,11,36,265,27,13,01,356,,15,06,023,,16,36,177,27*7D
$GPGSV,4,3,14,18,05,062,13,20,37,058,25,21,43,067,29,26,05,165,10*71
$GPGSV,4,4,14,27,78,106,19,30,13,316,17*7A
$GPGLL,5154.94090,N,00204.22087,W,131513.00,A,A*77
$GPRMC,131514.00,A,5154.94097,N,00204.22094,W,0.146,,280620,,,A*61
$GPVTG,,T,,M,0.146,N,0.271,K,A*24
$GPGGA,131514.00,5154.94097,N,00204.22094,W,1,09,1.13,74.4,M,48.0,M,,*71
$GPGSA,A,3,27,08,10,21,16,20,11,26,30,,,,2.17,1.13,1.85*04
$GPGSV,4,1,14,01,12,242,,07,15,285,,08,66,293,27,10,54,101,20*74
$GPGSV,4,2,14,11,36,265,27,13,01,356,,15,06,023,,16,36,177,27*7D
$GPGSV,4,3,14,18,05,063,,20,37,058,25,21,43,067,29,26,05,165,08*7B
$GPGSV,4,4,14,27,78,106,20,30,13,316,17*70
$GPGLL,5154.94097,N,00204.22094,W,131514.00,A,A*75
$GPRMC,131515.00,A,5154.94098,N,00204.22093,W,0.028,,280620,,,A*61
$GPVTG,,T,,M,0.028,N,0.052,K,A*2E
$GPGGA,131515.00,5154.94098,N,00204.22093,W,1,09,1.13,75.1,M,48.0,M,,*7C
$GPGSA,A,3,27,08,10,21,16,20,11,26,30,,,,2.17,1.13,1.85*04
$GPGSV,4,1,14,01,12,242,,07,15,285,,08,66,293,27,10,54,101,20*74
$GPGSV,4,2,14,11,36,265,27,13,01,356,,15,06,023,,16,36,177,28*72
$GPGSV,4,3,14,18,05,063,,20,37,058,25,21,43,067,29,26,05,165,08*7B
$GPGSV,4,4,14,27,78,106,21,30,13,316,19*7F
$GPGLL,5154.94098,N,00204.22093,W,131515.00,A,A*7C
$GPRMC,131516.00,A,5154.94099,N,00204.22094,W,0.048,,280620,,,A*62
$GPVTG,,T,,M,0.048,N,0.089,K,A*2E
$GPGGA,131516.00,5154.94099,N,00204.22094,W,1,09,1.13,75.2,M,48.0,M,,*7A
$GPGSA,A,3,27,08,10,21,16,20,11,26,30,,,,2.17,1.13,1.85*04
$GPGSV,4,1,14,01,12,242,,07,15,285,,08,66,293,26,10,54,101,21*74
$GPGSV,4,2,14,11,36,265,27,13,01,356,,15,06,023,,16,36,177,28*72
$GPGSV,4,3,14,18,05,063,,20,36,058,25,21,43,067,29,26,05,165,08*7A
$GPGSV,4,4,14,27,78,106,20,30,13,316,19*7E
$GPGLL,5154.94099,N,00204.22094,W,131516.00,A,A*79
$GPRMC,131517.00,A,5154.94099,N,00204.22092,W,0.068,,280620,,,A*67
$GPVTG,,T,,M,0.068,N,0.126,K,A*28
$GPGGA,131517.00,5154.94099,N,00204.22092,W,1,09,1.13,75.7,M,48.0,M,,*78
$GPGSA,A,3,27,08,10,21,16,20,11,26,30,,,,2.17,1.13,1.85*04
$GPGSV,4,1,14,01,12,242,,07,15,285,,08,66,293,26,10,54,101,22*77
$GPGSV,4,2,14,11,36,265,27,13,01,356,,15,06,023,,16,36,177,28*72
$GPGSV,4,3,14,18,05,063,,20,36,058,25,21,43,067,29,26,05,165,08*7A
$GPGSV,4,4,14,27,78,106,20,30,13,316,19*7E
$GPGLL,5154.94099,N,00204.22092,W,131517.00,A,A*7E
$GPRMC,131518.00,A,5154.94103,N,00204.22088,W,0.014,,280620,,,A*6A
$GPVTG,,T,,M,0.014,N,0.025,K,A*21